[{"id":0,"name":"Leskovački merak","restaurantType":"GRILL","articles":[],"isOpen":true,"logoPath":"","location":{"latitude":44.0128,"longitude":20.9114,"address":{"street":"Bulevar Kralja Petra","streetNumber":"34A","city":"Kragujevac","country":"Serbia","postalCode":"550601"}}},{"id":1,"name":"Pizza Bella","restaurantType":"ITALIAN","articles":[],"isOpen":false,"logoPath":"","location":{"latitude":44.8125,"longitude":20.4612,"address":{"street":"Svetog Save","streetNumber":"117","city":"Beograd","country":"Serbia","postalCode":"550601"}}},{"id":2,"name":"Dva štapića","restaurantType":"CHINESE","articles":[],"isOpen":false,"logoPath":"","location":{"latitude":45.2889,"longitude":19.7245,"address":{"street":"Vuka Karadžića","streetNumber":"77","city":"Novi Sad","country":"Serbia","postalCode":"550601"}}},{"id":3,"name":"Zelenko","restaurantType":"VEGAN","articles":[],"isOpen":true,"logoPath":"","location":{"latitude":45.7733,"longitude":19.1151,"address":{"street":"Save Šumanovića","streetNumber":"34A","city":"Sombor","country":"Serbia","postalCode":"550601"}}}]